<?xml version="1.0" encoding="UTF-8"?>
<kml xmlns="http://www.opengis.net/kml/2.2">
  <Document>
    <name>natural markers</name>
    <Style id="icon-1899-0288D1-nodesc-normal">
      <IconStyle>
        <color>ffd18802</color>
        <scale>1</scale>
        <Icon>
          <href>https://www.gstatic.com/mapspro/images/stock/503-wht-blank_maps.png</href>
        </Icon>
        <hotSpot x="32" xunits="pixels" y="64" yunits="insetPixels"/>
      </IconStyle>
      <LabelStyle>
        <scale>0</scale>
      </LabelStyle>
      <BalloonStyle>
        <text><![CDATA[<h3>$[name]</h3>]]></text>
      </BalloonStyle>
    </Style>
    <Style id="icon-1899-0288D1-nodesc-highlight">
      <IconStyle>
        <color>ffd18802</color>
        <scale>1</scale>
        <Icon>
          <href>https://www.gstatic.com/mapspro/images/stock/503-wht-blank_maps.png</href>
        </Icon>
        <hotSpot x="32" xunits="pixels" y="64" yunits="insetPixels"/>
      </IconStyle>
      <LabelStyle>
        <scale>1</scale>
      </LabelStyle>
      <BalloonStyle>
        <text><![CDATA[<h3>$[name]</h3>]]></text>
      </BalloonStyle>
    </Style>
    <StyleMap id="icon-1899-0288D1-nodesc">
      <Pair>
        <key>normal</key>
        <styleUrl>#icon-1899-0288D1-nodesc-normal</styleUrl>
      </Pair>
      <Pair>
        <key>highlight</key>
        <styleUrl>#icon-1899-0288D1-nodesc-highlight</styleUrl>
      </Pair>
    </StyleMap>
    <Style id="icon-503-DB4436-nodesc-normal">
      <IconStyle>
        <color>ff3644db</color>
        <scale>1.1</scale>
        <Icon>
          <href>https://www.gstatic.com/mapspro/images/stock/503-wht-blank_maps.png</href>
        </Icon>
        <hotSpot x="16" xunits="pixels" y="32" yunits="insetPixels"/>
      </IconStyle>
      <LabelStyle>
        <scale>0</scale>
      </LabelStyle>
      <BalloonStyle>
        <text><![CDATA[<h3>$[name]</h3>]]></text>
      </BalloonStyle>
    </Style>
    <Style id="icon-503-DB4436-nodesc-highlight">
      <IconStyle>
        <color>ff3644db</color>
        <scale>1.1</scale>
        <Icon>
          <href>https://www.gstatic.com/mapspro/images/stock/503-wht-blank_maps.png</href>
        </Icon>
        <hotSpot x="16" xunits="pixels" y="32" yunits="insetPixels"/>
      </IconStyle>
      <LabelStyle>
        <scale>1.1</scale>
      </LabelStyle>
      <BalloonStyle>
        <text><![CDATA[<h3>$[name]</h3>]]></text>
      </BalloonStyle>
    </Style>
    <StyleMap id="icon-503-DB4436-nodesc">
      <Pair>
        <key>normal</key>
        <styleUrl>#icon-503-DB4436-nodesc-normal</styleUrl>
      </Pair>
      <Pair>
        <key>highlight</key>
        <styleUrl>#icon-503-DB4436-nodesc-highlight</styleUrl>
      </Pair>
    </StyleMap>
    <Placemark>
      <name>wooden bridge</name>
      <styleUrl>#icon-503-DB4436-nodesc</styleUrl>
      <Point>
        <coordinates>
          -121.725977,47.490876,279.035187
        </coordinates>
      </Point>
    </Placemark>
    <Placemark>
      <name>stream and bridge</name>
      <styleUrl>#icon-503-DB4436-nodesc</styleUrl>
      <Point>
        <coordinates>
          -121.727655,47.491185,309.568176
        </coordinates>
      </Point>
    </Placemark>
    <Placemark>
      <name>mossy tree</name>
      <styleUrl>#icon-503-DB4436-nodesc</styleUrl>
      <Point>
        <coordinates>
          -121.728314,47.491622,322.920258
        </coordinates>
      </Point>
    </Placemark>
    <Placemark>
      <name>stream</name>
      <styleUrl>#icon-503-DB4436-nodesc</styleUrl>
      <Point>
        <coordinates>
          -121.728055,47.492141,343.274811
        </coordinates>
      </Point>
    </Placemark>
    <Placemark>
      <name>view: south</name>
      <styleUrl>#icon-503-DB4436-nodesc</styleUrl>
      <Point>
        <coordinates>
          -121.73539,47.492228,458.767548
        </coordinates>
      </Point>
    </Placemark>
    <Placemark>
      <name>bench</name>
      <styleUrl>#icon-503-DB4436-nodesc</styleUrl>
      <Point>
        <coordinates>
          -121.735479,47.493522,513.491882
        </coordinates>
      </Point>
    </Placemark>
    <Placemark>
      <name>tree down stream</name>
      <styleUrl>#icon-503-DB4436-nodesc</styleUrl>
      <Point>
        <coordinates>
          -121.734052,47.494676,542.486816
        </coordinates>
      </Point>
    </Placemark>
    <Placemark>
      <name>wooden bridge
</name>
      <styleUrl>#icon-503-DB4436-nodesc</styleUrl>
      <Point>
        <coordinates>
          -121.732801,47.496757,615.474731
        </coordinates>
      </Point>
    </Placemark>
    <Placemark>
      <name>bench</name>
      <styleUrl>#icon-503-DB4436-nodesc</styleUrl>
      <Point>
        <coordinates>
          -121.733737,47.496635,615.811035
        </coordinates>
      </Point>
    </Placemark>
    <Placemark>
      <name>rails</name>
      <styleUrl>#icon-503-DB4436-nodesc</styleUrl>
      <Point>
        <coordinates>
          -121.737244,47.497794,776.310486
        </coordinates>
      </Point>
    </Placemark>
    <Placemark>
      <name>rails
</name>
      <styleUrl>#icon-503-DB4436-nodesc</styleUrl>
      <Point>
        <coordinates>
          -121.736585,47.498273,790.96283
        </coordinates>
      </Point>
    </Placemark>
    <Placemark>
      <name>view: east</name>
      <styleUrl>#icon-503-DB4436-nodesc</styleUrl>
      <Point>
        <coordinates>
          -121.737957,47.50367,1012.748718
        </coordinates>
      </Point>
    </Placemark>
    <Placemark>
      <name>stop before rocks
</name>
      <styleUrl>#icon-1899-0288D1-nodesc</styleUrl>
      <Point>
        <coordinates>
          -121.7396711,47.5054356,0
        </coordinates>
      </Point>
    </Placemark>
  </Document>
</kml>
